{
"type": "FeatureCollection",
"crs": { "type": "name", "properties": { "name": "urn:ogc:def:crs:OGC:1.3:CRS84" } },
"features": [
{ "type": "Feature", "properties": { "id": "95855262", "name": null, "type": "camp_site", "source": "openstreetmap", "address": null, "website": null, "phone_number": null }, "geometry": { "type": "Point", "coordinates": [ -85.9070346, 30.2321114 ] } },
{ "type": "Feature", "properties": { "id": "96919971", "name": null, "type": "memorial", "source": "openstreetmap", "address": null, "website": null, "phone_number": null }, "geometry": { "type": "Point", "coordinates": [ -81.660886, 30.3260755 ] } },
{ "type": "Feature", "properties": { "id": "97557631", "name": "Mile 1", "type": "tourist_info", "source": "openstreetmap", "address": null, "website": null, "phone_number": null }, "geometry": { "type": "Point", "coordinates": [ -85.4104679, 29.8018967 ] } },
{ "type": "Feature", "properties": { "id": "97571939", "name": "Hardee Correctional Institution Library", "type": "library", "source": "openstreetmap", "address": null, "website": null, "phone_number": null }, "geometry": { "type": "Point", "coordinates": [ -82.014849, 27.590407 ] } },
{ "type": "Feature", "properties": { "id": "98587924", "name": null, "type": "tourist_info", "source": "openstreetmap", "address": null, "website": null, "phone_number": null }, "geometry": { "type": "Point", "coordinates": [ -82.9636478, 29.5028385 ] } },
{ "type": "Feature", "properties": { "id": "99280684", "name": "Miami Design District", "type": "attraction", "source": "openstreetmap", "address": null, "website": null, "phone_number": null }, "geometry": { "type": "Point", "coordinates": [ -80.19342, 25.813414 ] } },
{ "type": "Feature", "properties": { "id": "100621977", "name": "Majestic View", "type": "viewpoint", "source": "openstreetmap", "address": null, "website": null, "phone_number": null }, "geometry": { "type": "Point", "coordinates": [ -81.926431, 27.969719 ] } },
{ "type": "Feature", "properties": { "id": "100685723", "name": "74", "type": "tourist_info", "source": "openstreetmap", "address": null, "website": null, "phone_number": null }, "geometry": { "type": "Point", "coordinates": [ -82.1229744, 27.149387 ] } },
{ "type": "Feature", "properties": { "id": "100938131", "name": "46", "type": "tourist_info", "source": "openstreetmap", "address": null, "website": null, "phone_number": null }, "geometry": { "type": "Point", "coordinates": [ -82.13529, 27.143588 ] } },
{ "type": "Feature", "properties": { "id": "100938167", "name": "69", "type": "tourist_info", "source": "openstreetmap", "address": null, "website": null, "phone_number": null }, "geometry": { "type": "Point", "coordinates": [ -82.131745, 27.159741 ] } },
{ "type": "Feature", "properties": { "id": "100938250", "name": "49", "type": "tourist_info", "source": "openstreetmap", "address": null, "website": null, "phone_number": null }, "geometry": { "type": "Point", "coordinates": [ -82.1326679, 27.1496556 ] } },
{ "type": "Feature", "properties": { "id": "100938259", "name": "50", "type": "tourist_info", "source": "openstreetmap", "address": null, "website": null, "phone_number": null }, "geometry": { "type": "Point", "coordinates": [ -82.1356256, 27.1492019 ] } },
{ "type": "Feature", "properties": { "id": "100938269", "name": "48", "type": "tourist_info", "source": "openstreetmap", "address": null, "website": null, "phone_number": null }, "geometry": { "type": "Point", "coordinates": [ -82.1361014, 27.1463592 ] } },
{ "type": "Feature", "properties": { "id": "153706477", "name": "Fort McRee", "type": "ruins", "source": "openstreetmap", "address": null, "website": null, "phone_number": null }, "geometry": { "type": "Point", "coordinates": [ -87.3169901, 30.3256909 ] } },
{ "type": "Feature", "properties": { "id": "153914052", "name": "Fort Kissimmee", "type": "fort", "source": "openstreetmap", "address": null, "website": null, "phone_number": null }, "geometry": { "type": "Point", "coordinates": [ -81.1603453, 27.5861442 ] } },
{ "type": "Feature", "properties": { "id": "154201254", "name": "River Forest Group Site", "type": "camp_site", "source": "openstreetmap", "address": null, "website": null, "phone_number": null }, "geometry": { "type": "Point", "coordinates": [ -81.3902936, 29.0126908 ] } },
{ "type": "Feature", "properties": { "id": "240241653", "name": null, "type": "ruins", "source": "openstreetmap", "address": null, "website": null, "phone_number": null }, "geometry": { "type": "Point", "coordinates": [ -87.2901757, 30.3299748 ] } },
{ "type": "Feature", "properties": { "id": "240809907", "name": null, "type": "viewpoint", "source": "openstreetmap", "address": null, "website": null, "phone_number": null }, "geometry": { "type": "Point", "coordinates": [ -84.9146481, 29.64178 ] } },
{ "type": "Feature", "properties": { "id": "240809919", "name": null, "type": "viewpoint", "source": "openstreetmap", "address": null, "website": null, "phone_number": null }, "geometry": { "type": "Point", "coordinates": [ -84.9156318, 29.6408612 ] } },
{ "type": "Feature", "properties": { "id": "240812274", "name": null, "type": "viewpoint", "source": "openstreetmap", "address": null, "website": null, "phone_number": null }, "geometry": { "type": "Point", "coordinates": [ -84.9177644, 29.6410937 ] } },
{ "type": "Feature", "properties": { "id": "259543787", "name": null, "type": "waste_basket", "source": "openstreetmap", "address": null, "website": null, "phone_number": null }, "geometry": { "type": "Point", "coordinates": [ -82.457811, 27.9422507 ] } },
{ "type": "Feature", "properties": { "id": "266689990", "name": "Publix", "type": "supermarket", "source": "openstreetmap", "address": null, "website": null, "phone_number": null }, "geometry": { "type": "Point", "coordinates": [ -81.4381135, 28.2621071 ] } },
{ "type": "Feature", "properties": { "id": "279568417", "name": null, "type": "cinema", "source": "openstreetmap", "address": null, "website": null, "phone_number": null }, "geometry": { "type": "Point", "coordinates": [ -82.4468275, 27.9434126 ] } },
{ "type": "Feature", "properties": { "id": "279827056", "name": "CVS Pharmacy", "type": "pharmacy", "source": "openstreetmap", "address": null, "website": null, "phone_number": null }, "geometry": { "type": "Point", "coordinates": [ -82.4585068, 27.9485379 ] } },
{ "type": "Feature", "properties": { "id": "279935911", "name": "United States Post Office", "type": "post_office", "source": "openstreetmap", "address": null, "website": null, "phone_number": null }, "geometry": { "type": "Point", "coordinates": [ -82.4595414, 27.9473718 ] } },
{ "type": "Feature", "properties": { "id": "282685801", "name": "Henry B. Plant Museum", "type": "attraction", "source": "openstreetmap", "address": null, "website": null, "phone_number": null }, "geometry": { "type": "Point", "coordinates": [ -82.4641818, 27.9462133 ] } },
{ "type": "Feature", "properties": { "id": "283427028", "name": "Winn-Dixie", "type": "supermarket", "source": "openstreetmap", "address": null, "website": null, "phone_number": null }, "geometry": { "type": "Point", "coordinates": [ -82.3670633, 27.9397374 ] } },
{ "type": "Feature", "properties": { "id": "287065309", "name": "Ybor City Post Office", "type": "post_office", "source": "openstreetmap", "address": null, "website": null, "phone_number": null }, "geometry": { "type": "Point", "coordinates": [ -82.4375751, 27.9641125 ] } },
{ "type": "Feature", "properties": { "id": "291201220", "name": null, "type": "sports_centre", "source": "openstreetmap", "address": null, "website": null, "phone_number": null }, "geometry": { "type": "Point", "coordinates": [ -81.1784456, 28.5147471 ] } },
{ "type": "Feature", "properties": { "id": "291201222", "name": "Stoneybrook fitness center", "type": "sports_centre", "source": "openstreetmap", "address": null, "website": null, "phone_number": null }, "geometry": { "type": "Point", "coordinates": [ -81.177092, 28.5217927 ] } },
{ "type": "Feature", "properties": { "id": "298132745", "name": null, "type": "convenience", "source": "openstreetmap", "address": null, "website": null, "phone_number": null }, "geometry": { "type": "Point", "coordinates": [ -82.4011324, 27.9525798 ] } },
{ "type": "Feature", "properties": { "id": "301641368", "name": "Billie Swamp Safari", "type": "attraction", "source": "openstreetmap", "address": null, "website": null, "phone_number": null }, "geometry": { "type": "Point", "coordinates": [ -81.0548692, 26.3301531 ] } },
{ "type": "Feature", "properties": { "id": "301642926", "name": "Taco Bell", "type": "fast_food", "source": "openstreetmap", "address": null, "website": null, "phone_number": null }, "geometry": { "type": "Point", "coordinates": [ -80.1363563, 26.0982307 ] } },
{ "type": "Feature", "properties": { "id": "301646439", "name": "Tacos Hooked Up Sportfishing", "type": "attraction", "source": "openstreetmap", "address": null, "website": null, "phone_number": null }, "geometry": { "type": "Point", "coordinates": [ -80.1059234, 26.1117034 ] } },
{ "type": "Feature", "properties": { "id": "305948682", "name": null, "type": "convenience", "source": "openstreetmap", "address": null, "website": null, "phone_number": null }, "geometry": { "type": "Point", "coordinates": [ -82.4020937, 27.9662867 ] } },
{ "type": "Feature", "properties": { "id": "305948721", "name": null, "type": "convenience", "source": "openstreetmap", "address": null, "website": null, "phone_number": null }, "geometry": { "type": "Point", "coordinates": [ -82.4013212, 27.9663549 ] } },
{ "type": "Feature", "properties": { "id": "306433521", "name": null, "type": "convenience", "source": "openstreetmap", "address": null, "website": null, "phone_number": null }, "geometry": { "type": "Point", "coordinates": [ -82.4514542, 27.9704721 ] } },
{ "type": "Feature", "properties": { "id": "307130001", "name": "Miami Lakes Fire Station", "type": "fire_station", "source": "openstreetmap", "address": null, "website": null, "phone_number": null }, "geometry": { "type": "Point", "coordinates": [ -80.308954, 25.9240447 ] } },
{ "type": "Feature", "properties": { "id": "308282672", "name": "Winn-Dixie", "type": "supermarket", "source": "openstreetmap", "address": null, "website": null, "phone_number": null }, "geometry": { "type": "Point", "coordinates": [ -82.4526041, 27.9807363 ] } },
{ "type": "Feature", "properties": { "id": "309159996", "name": "Burger King", "type": "fast_food", "source": "openstreetmap", "address": null, "website": null, "phone_number": null }, "geometry": { "type": "Point", "coordinates": [ -82.4358295, 27.96406 ] } },
{ "type": "Feature", "properties": { "id": "309160598", "name": "McDonald's", "type": "fast_food", "source": "openstreetmap", "address": null, "website": null, "phone_number": null }, "geometry": { "type": "Point", "coordinates": [ -82.4353229, 27.9642764 ] } },
{ "type": "Feature", "properties": { "id": "309162814", "name": "Subway", "type": "fast_food", "source": "openstreetmap", "address": null, "website": null, "phone_number": null }, "geometry": { "type": "Point", "coordinates": [ -82.4406703, 27.9604515 ] } },
{ "type": "Feature", "properties": { "id": "309165451", "name": "Hillsborough Co. Sheriff", "type": "police", "source": "openstreetmap", "address": null, "website": null, "phone_number": null }, "geometry": { "type": "Point", "coordinates": [ -82.4359448, 27.9616852 ] } },
{ "type": "Feature", "properties": { "id": "309760498", "name": "CVS Pharmacy", "type": "pharmacy", "source": "openstreetmap", "address": null, "website": null, "phone_number": null }, "geometry": { "type": "Point", "coordinates": [ -81.2044555, 28.5461478 ] } },
{ "type": "Feature", "properties": { "id": "309760499", "name": "Walgreens", "type": "pharmacy", "source": "openstreetmap", "address": null, "website": null, "phone_number": null }, "geometry": { "type": "Point", "coordinates": [ -81.2046923, 28.5472987 ] } },
{ "type": "Feature", "properties": { "id": "309760518", "name": "Winn-Dixie", "type": "supermarket", "source": "openstreetmap", "address": null, "website": null, "phone_number": null }, "geometry": { "type": "Point", "coordinates": [ -81.2012575, 28.545822 ] } },
{ "type": "Feature", "properties": { "id": "309760521", "name": "Target", "type": "department_store", "source": "openstreetmap", "address": null, "website": null, "phone_number": null }, "geometry": { "type": "Point", "coordinates": [ -81.2018027, 28.5520001 ] } },
{ "type": "Feature", "properties": { "id": "309760522", "name": "The Home Depot", "type": "doityourself", "source": "openstreetmap", "address": null, "website": null, "phone_number": null }, "geometry": { "type": "Point", "coordinates": [ -81.2075559, 28.5510393 ] } },
{ "type": "Feature", "properties": { "id": "309760526", "name": null, "type": "bank", "source": "openstreetmap", "address": null, "website": null, "phone_number": null }, "geometry": { "type": "Point", "coordinates": [ -81.2099674, 28.5462332 ] } },
{ "type": "Feature", "properties": { "id": "309761244", "name": null, "type": "bank", "source": "openstreetmap", "address": null, "website": null, "phone_number": null }, "geometry": { "type": "Point", "coordinates": [ -81.2081818, 28.5355073 ] } },
{ "type": "Feature", "properties": { "id": "309761248", "name": "Walmart Neighborhood Market", "type": "supermarket", "source": "openstreetmap", "address": null, "website": null, "phone_number": null }, "geometry": { "type": "Point", "coordinates": [ -81.2091148, 28.5361908 ] } },
{ "type": "Feature", "properties": { "id": "309765505", "name": "Romano's Macaroni Grill", "type": "restaurant", "source": "openstreetmap", "address": null, "website": null, "phone_number": null }, "geometry": { "type": "Point", "coordinates": [ -81.2041248, 28.5525215 ] } },
{ "type": "Feature", "properties": { "id": "309765507", "name": "Smokey Bones", "type": "restaurant", "source": "openstreetmap", "address": null, "website": null, "phone_number": null }, "geometry": { "type": "Point", "coordinates": [ -81.2032549, 28.55099 ] } },
{ "type": "Feature", "properties": { "id": "309765508", "name": "Chase", "type": "bank", "source": "openstreetmap", "address": null, "website": null, "phone_number": null }, "geometry": { "type": "Point", "coordinates": [ -81.2060638, 28.5571969 ] } },
{ "type": "Feature", "properties": { "id": "309765509", "name": "Panda Express", "type": "fast_food", "source": "openstreetmap", "address": null, "website": null, "phone_number": null }, "geometry": { "type": "Point", "coordinates": [ -81.2077362, 28.5574116 ] } },
{ "type": "Feature", "properties": { "id": "309765534", "name": null, "type": "pharmacy", "source": "openstreetmap", "address": null, "website": null, "phone_number": null }, "geometry": { "type": "Point", "coordinates": [ -81.2769319, 28.5386526 ] } },
{ "type": "Feature", "properties": { "id": "309765734", "name": "Publix", "type": "supermarket", "source": "openstreetmap", "address": null, "website": null, "phone_number": null }, "geometry": { "type": "Point", "coordinates": [ -81.154465, 28.5143226 ] } },
{ "type": "Feature", "properties": { "id": "309780491", "name": "Subway", "type": "fast_food", "source": "openstreetmap", "address": null, "website": null, "phone_number": null }, "geometry": { "type": "Point", "coordinates": [ -81.4294536, 28.4943076 ] } },
{ "type": "Feature", "properties": { "id": "309780518", "name": "Mc Coy Federal Credit Union", "type": "bank", "source": "openstreetmap", "address": null, "website": null, "phone_number": null }, "geometry": { "type": "Point", "coordinates": [ -81.4572411, 28.504152 ] } },
{ "type": "Feature", "properties": { "id": "309780519", "name": "Wing House", "type": "restaurant", "source": "openstreetmap", "address": null, "website": null, "phone_number": null }, "geometry": { "type": "Point", "coordinates": [ -81.4580425, 28.503706 ] } },
{ "type": "Feature", "properties": { "id": "309780520", "name": "Ruby Tuesday", "type": "restaurant", "source": "openstreetmap", "address": null, "website": null, "phone_number": null }, "geometry": { "type": "Point", "coordinates": [ -81.4580286, 28.5033228 ] } },
{ "type": "Feature", "properties": { "id": "309780521", "name": "Denny's", "type": "restaurant", "source": "openstreetmap", "address": null, "website": null, "phone_number": null }, "geometry": { "type": "Point", "coordinates": [ -81.4580216, 28.5028071 ] } },
{ "type": "Feature", "properties": { "id": "309780523", "name": "Panda Express", "type": "fast_food", "source": "openstreetmap", "address": null, "website": null, "phone_number": null }, "geometry": { "type": "Point", "coordinates": [ -81.4595957, 28.5111173 ] } },
{ "type": "Feature", "properties": { "id": "309780526", "name": "McDonald's", "type": "fast_food", "source": "openstreetmap", "address": null, "website": null, "phone_number": null }, "geometry": { "type": "Point", "coordinates": [ -81.4596807, 28.5114301 ] } },
{ "type": "Feature", "properties": { "id": "309780528", "name": "Wendy's", "type": "fast_food", "source": "openstreetmap", "address": null, "website": null, "phone_number": null }, "geometry": { "type": "Point", "coordinates": [ -81.4616661, 28.5133974 ] } },
{ "type": "Feature", "properties": { "id": "309780529", "name": "Walmart Supercenter", "type": "supermarket", "source": "openstreetmap", "address": null, "website": null, "phone_number": null }, "geometry": { "type": "Point", "coordinates": [ -81.4626163, 28.5153893 ] } },
{ "type": "Feature", "properties": { "id": "313606901", "name": null, "type": "playground", "source": "openstreetmap", "address": null, "website": null, "phone_number": null }, "geometry": { "type": "Point", "coordinates": [ -81.5361055, 28.3805249 ] } },
{ "type": "Feature", "properties": { "id": "313990290", "name": "1", "type": "tourist_info", "source": "openstreetmap", "address": null, "website": null, "phone_number": null }, "geometry": { "type": "Point", "coordinates": [ -82.3511906, 27.67464 ] } },
{ "type": "Feature", "properties": { "id": "320911881", "name": "AMC CLASSIC Centro Ybor 10", "type": "cinema", "source": "openstreetmap", "address": null, "website": null, "phone_number": null }, "geometry": { "type": "Point", "coordinates": [ -82.4416202, 27.9614582 ] } },
{ "type": "Feature", "properties": { "id": "320948703", "name": "Channel District;Salon 1.0", "type": "beauty_shop", "source": "openstreetmap", "address": null, "website": null, "phone_number": null }, "geometry": { "type": "Point", "coordinates": [ -82.4468377, 27.9469069 ] } },
{ "type": "Feature", "properties": { "id": "320953822", "name": "Spaghetti Warehouse", "type": "restaurant", "source": "openstreetmap", "address": null, "website": null, "phone_number": null }, "geometry": { "type": "Point", "coordinates": [ -82.4452048, 27.9614841 ] } },
{ "type": "Feature", "properties": { "id": "321444796", "name": "SunTrust", "type": "bank", "source": "openstreetmap", "address": null, "website": null, "phone_number": null }, "geometry": { "type": "Point", "coordinates": [ -82.4526661, 27.9367776 ] } },
{ "type": "Feature", "properties": { "id": "321445195", "name": "Bank of Florida", "type": "bank", "source": "openstreetmap", "address": null, "website": null, "phone_number": null }, "geometry": { "type": "Point", "coordinates": [ -82.4540697, 27.9380531 ] } },
{ "type": "Feature", "properties": { "id": "321447916", "name": "Jackson's Bistro", "type": "restaurant", "source": "openstreetmap", "address": null, "website": null, "phone_number": null }, "geometry": { "type": "Point", "coordinates": [ -82.454786, 27.938872 ] } },
{ "type": "Feature", "properties": { "id": "321448213", "name": "Subway", "type": "fast_food", "source": "openstreetmap", "address": null, "website": null, "phone_number": null }, "geometry": { "type": "Point", "coordinates": [ -82.4586811, 27.9484384 ] } },
{ "type": "Feature", "properties": { "id": "321449418", "name": "Cafe Hey", "type": "cafe", "source": "openstreetmap", "address": null, "website": null, "phone_number": null }, "geometry": { "type": "Point", "coordinates": [ -82.4603397, 27.957311 ] } },
{ "type": "Feature", "properties": { "id": "321454180", "name": "Oceanic Oriental Market", "type": "supermarket", "source": "openstreetmap", "address": null, "website": null, "phone_number": null }, "geometry": { "type": "Point", "coordinates": [ -82.4605695, 27.9575908 ] } },
{ "type": "Feature", "properties": { "id": "321466877", "name": "Subway", "type": "fast_food", "source": "openstreetmap", "address": null, "website": null, "phone_number": null }, "geometry": { "type": "Point", "coordinates": [ -82.4554185, 27.9504126 ] } },
{ "type": "Feature", "properties": { "id": "322799575", "name": "Tampa Bay Brewing Company", "type": "pub", "source": "openstreetmap", "address": null, "website": null, "phone_number": null }, "geometry": { "type": "Point", "coordinates": [ -82.4416215, 27.9613506 ] } },
{ "type": "Feature", "properties": { "id": "322800062", "name": "El Puerto Argentinean Grill", "type": "restaurant", "source": "openstreetmap", "address": null, "website": null, "phone_number": null }, "geometry": { "type": "Point", "coordinates": [ -82.4405852, 27.958677 ] } },
{ "type": "Feature", "properties": { "id": "322800473", "name": "La Terrazza Restaurant", "type": "restaurant", "source": "openstreetmap", "address": null, "website": null, "phone_number": null }, "geometry": { "type": "Point", "coordinates": [ -82.4396821, 27.9600832 ] } },
{ "type": "Feature", "properties": { "id": "322802618", "name": "SunTrust", "type": "bank", "source": "openstreetmap", "address": null, "website": null, "phone_number": null }, "geometry": { "type": "Point", "coordinates": [ -82.4402762, 27.9600727 ] } },
{ "type": "Feature", "properties": { "id": "322806220", "name": "CZAR NATION", "type": "nightclub", "source": "openstreetmap", "address": null, "website": null, "phone_number": null }, "geometry": { "type": "Point", "coordinates": [ -82.4432521, 27.9604034 ] } },
{ "type": "Feature", "properties": { "id": "323365461", "name": "Lake Worth Pier", "type": "pub", "source": "openstreetmap", "address": null, "website": null, "phone_number": null }, "geometry": { "type": "Point", "coordinates": [ -80.0368232, 26.6128627 ] } },
{ "type": "Feature", "properties": { "id": "324078897", "name": "Five Guys", "type": "fast_food", "source": "openstreetmap", "address": null, "website": null, "phone_number": null }, "geometry": { "type": "Point", "coordinates": [ -82.4603634, 27.9496246 ] } },
{ "type": "Feature", "properties": { "id": "339169871", "name": null, "type": "convenience", "source": "openstreetmap", "address": null, "website": null, "phone_number": null }, "geometry": { "type": "Point", "coordinates": [ -82.4025589, 27.9225018 ] } },
{ "type": "Feature", "properties": { "id": "353890339", "name": null, "type": "toilet", "source": "openstreetmap", "address": null, "website": null, "phone_number": null }, "geometry": { "type": "Point", "coordinates": [ -82.785696, 27.9147128 ] } },
{ "type": "Feature", "properties": { "id": "353893649", "name": "Panera Bread", "type": "fast_food", "source": "openstreetmap", "address": null, "website": null, "phone_number": null }, "geometry": { "type": "Point", "coordinates": [ -82.4266601, 28.0565494 ] } },
{ "type": "Feature", "properties": { "id": "354198151", "name": "Planet Smoothie", "type": "restaurant", "source": "openstreetmap", "address": null, "website": null, "phone_number": null }, "geometry": { "type": "Point", "coordinates": [ -82.4268232, 28.0564812 ] } },
{ "type": "Feature", "properties": { "id": "354502673", "name": "Yard of Ale", "type": "pub", "source": "openstreetmap", "address": null, "website": null, "phone_number": null }, "geometry": { "type": "Point", "coordinates": [ -82.6366239, 27.7719014 ] } },
{ "type": "Feature", "properties": { "id": "354502675", "name": "DeSanto Bar", "type": "bar", "source": "openstreetmap", "address": null, "website": null, "phone_number": null }, "geometry": { "type": "Point", "coordinates": [ -82.6367564, 27.7696615 ] } },
{ "type": "Feature", "properties": { "id": "354568688", "name": null, "type": "toilet", "source": "openstreetmap", "address": null, "website": null, "phone_number": null }, "geometry": { "type": "Point", "coordinates": [ -82.3619819, 28.1320903 ] } },
{ "type": "Feature", "properties": { "id": "354568837", "name": null, "type": "drinking_water", "source": "openstreetmap", "address": null, "website": null, "phone_number": null }, "geometry": { "type": "Point", "coordinates": [ -82.3621106, 28.1320903 ] } },
{ "type": "Feature", "properties": { "id": "354580249", "name": null, "type": "vending_parking", "source": "openstreetmap", "address": null, "website": null, "phone_number": null }, "geometry": { "type": "Point", "coordinates": [ -82.4139453, 28.0576209 ] } },
{ "type": "Feature", "properties": { "id": "354693595", "name": "Regions Bank", "type": "bank", "source": "openstreetmap", "address": null, "website": null, "phone_number": null }, "geometry": { "type": "Point", "coordinates": [ -82.4266743, 28.0558895 ] } },
{ "type": "Feature", "properties": { "id": "355918781", "name": "Flanagan's Irish Pub", "type": "pub", "source": "openstreetmap", "address": null, "website": null, "phone_number": null }, "geometry": { "type": "Point", "coordinates": [ -82.7864554, 28.0120016 ] } },
{ "type": "Feature", "properties": { "id": "355918858", "name": "Cafe Alfresco", "type": "restaurant", "source": "openstreetmap", "address": null, "website": null, "phone_number": null }, "geometry": { "type": "Point", "coordinates": [ -82.7889196, 28.0120547 ] } },
{ "type": "Feature", "properties": { "id": "355918944", "name": "Chic a Boom Room", "type": "restaurant", "source": "openstreetmap", "address": null, "website": null, "phone_number": null }, "geometry": { "type": "Point", "coordinates": [ -82.789351, 28.011906 ] } },
{ "type": "Feature", "properties": { "id": "355918945", "name": "The Black Pearl", "type": "restaurant", "source": "openstreetmap", "address": null, "website": null, "phone_number": null }, "geometry": { "type": "Point", "coordinates": [ -82.7894226, 28.0119233 ] } },
{ "type": "Feature", "properties": { "id": "355919135", "name": "Chic-a-boom Room", "type": "pub", "source": "openstreetmap", "address": null, "website": null, "phone_number": null }, "geometry": { "type": "Point", "coordinates": [ -82.789284, 28.011888 ] } }
]
}
